[
    {
        "city": "Belgrade", 
        "admin": "", 
        "country": "Serbia", 
        "population_proper": "1099000", 
        "iso2": "RS", 
        "capital": "primary", 
        "lat": "44.818611", 
        "lng": "20.468056", 
        "population": "1099000"
    }, 
    {
        "city": "Ni\u0161", 
        "admin": "Ni\u0161", 
        "country": "Serbia", 
        "population_proper": "210888", 
        "iso2": "RS", 
        "capital": "admin", 
        "lat": "43.323356", 
        "lng": "21.901779", 
        "population": "250000"
    }, 
    {
        "city": "Novi Sad", 
        "admin": "Novi Sad", 
        "country": "Serbia", 
        "population_proper": "215400", 
        "iso2": "RS", 
        "capital": "admin", 
        "lat": "45.259272", 
        "lng": "19.829056", 
        "population": "225457"
    }, 
    {
        "city": "Kragujevac", 
        "admin": "Kragujevac", 
        "country": "Serbia", 
        "population_proper": "147473", 
        "iso2": "RS", 
        "capital": "admin", 
        "lat": "44.010876", 
        "lng": "20.909029", 
        "population": "171197"
    }, 
    {
        "city": "Subotica", 
        "admin": "Subotica", 
        "country": "Serbia", 
        "population_proper": "93408", 
        "iso2": "RS", 
        "capital": "admin", 
        "lat": "46.100972", 
        "lng": "19.668233", 
        "population": "100000"
    }, 
    {
        "city": "Zrenjanin", 
        "admin": "Zrenjanin", 
        "country": "Serbia", 
        "population_proper": "64053", 
        "iso2": "RS", 
        "capital": "admin", 
        "lat": "45.38182", 
        "lng": "20.395396", 
        "population": "64053"
    }, 
    {
        "city": "\u0106uprija", 
        "admin": "\u0106uprija", 
        "country": "Serbia", 
        "population_proper": "", 
        "iso2": "RS", 
        "capital": "admin", 
        "lat": "43.928388", 
        "lng": "21.374491", 
        "population": ""
    }, 
    {
        "city": "Krupanj", 
        "admin": "Krupanj", 
        "country": "Serbia", 
        "population_proper": "", 
        "iso2": "RS", 
        "capital": "admin", 
        "lat": "44.367619", 
        "lng": "19.36327", 
        "population": ""
    }, 
    {
        "city": "Arilje", 
        "admin": "Arilje", 
        "country": "Serbia", 
        "population_proper": "", 
        "iso2": "RS", 
        "capital": "admin", 
        "lat": "43.754987", 
        "lng": "20.097004", 
        "population": ""
    }, 
    {
        "city": "Pan\u010devo", 
        "admin": "Pan\u010devo", 
        "country": "Serbia", 
        "population_proper": "", 
        "iso2": "RS", 
        "capital": "admin", 
        "lat": "44.87131", 
        "lng": "20.644304", 
        "population": ""
    }, 
    {
        "city": "\u010coka", 
        "admin": "\u010coka", 
        "country": "Serbia", 
        "population_proper": "", 
        "iso2": "RS", 
        "capital": "admin", 
        "lat": "45.941516", 
        "lng": "20.146023", 
        "population": ""
    }, 
    {
        "city": "Bogati\u0107", 
        "admin": "Bogati\u0107", 
        "country": "Serbia", 
        "population_proper": "", 
        "iso2": "RS", 
        "capital": "admin", 
        "lat": "44.8376", 
        "lng": "19.480699", 
        "population": ""
    }, 
    {
        "city": "Sombor", 
        "admin": "Sombor", 
        "country": "Serbia", 
        "population_proper": "", 
        "iso2": "RS", 
        "capital": "admin", 
        "lat": "45.774239", 
        "lng": "19.115068", 
        "population": ""
    }, 
    {
        "city": "\u0160abac", 
        "admin": "\u0160abac", 
        "country": "Serbia", 
        "population_proper": "", 
        "iso2": "RS", 
        "capital": "admin", 
        "lat": "44.753841", 
        "lng": "19.687569", 
        "population": ""
    }, 
    {
        "city": "Koceljeva", 
        "admin": "Koceljeva", 
        "country": "Serbia", 
        "population_proper": "", 
        "iso2": "RS", 
        "capital": "admin", 
        "lat": "44.468716", 
        "lng": "19.82139", 
        "population": ""
    }, 
    {
        "city": "Po\u017eega", 
        "admin": "Po\u017eega", 
        "country": "Serbia", 
        "population_proper": "", 
        "iso2": "RS", 
        "capital": "admin", 
        "lat": "43.845852", 
        "lng": "20.036774", 
        "population": ""
    }, 
    {
        "city": "Kova\u010dica", 
        "admin": "Kova\u010dica", 
        "country": "Serbia", 
        "population_proper": "", 
        "iso2": "RS", 
        "capital": "admin", 
        "lat": "45.110931", 
        "lng": "20.623601", 
        "population": ""
    }, 
    {
        "city": "Lebane", 
        "admin": "Lebane", 
        "country": "Serbia", 
        "population_proper": "", 
        "iso2": "RS", 
        "capital": "admin", 
        "lat": "42.917129", 
        "lng": "21.729449", 
        "population": ""
    }, 
    {
        "city": "Ljig", 
        "admin": "Ljig", 
        "country": "Serbia", 
        "population_proper": "", 
        "iso2": "RS", 
        "capital": "admin", 
        "lat": "44.226611", 
        "lng": "20.239352", 
        "population": ""
    }, 
    {
        "city": "Sur\u010din", 
        "admin": "Beograd", 
        "country": "Serbia", 
        "population_proper": "", 
        "iso2": "RS", 
        "capital": "minor", 
        "lat": "44.794368", 
        "lng": "20.278136", 
        "population": ""
    }, 
    {
        "city": "Babu\u0161nica", 
        "admin": "Babu\u0161nica", 
        "country": "Serbia", 
        "population_proper": "", 
        "iso2": "RS", 
        "capital": "admin", 
        "lat": "43.067962", 
        "lng": "22.411508", 
        "population": ""
    }, 
    {
        "city": "Aleksinac", 
        "admin": "Aleksinac", 
        "country": "Serbia", 
        "population_proper": "", 
        "iso2": "RS", 
        "capital": "admin", 
        "lat": "43.541667", 
        "lng": "21.707778", 
        "population": ""
    }, 
    {
        "city": "Bojnik", 
        "admin": "Bojnik", 
        "country": "Serbia", 
        "population_proper": "", 
        "iso2": "RS", 
        "capital": "admin", 
        "lat": "43.014188", 
        "lng": "21.717967", 
        "population": ""
    }, 
    {
        "city": "Aran\u0111elovac", 
        "admin": "Aran\u0111elovac", 
        "country": "Serbia", 
        "population_proper": "", 
        "iso2": "RS", 
        "capital": "admin", 
        "lat": "44.307663", 
        "lng": "20.561163", 
        "population": ""
    }, 
    {
        "city": "Bela Crkva", 
        "admin": "Bela Crkva", 
        "country": "Serbia", 
        "population_proper": "", 
        "iso2": "RS", 
        "capital": "admin", 
        "lat": "44.901485", 
        "lng": "21.423394", 
        "population": ""
    }, 
    {
        "city": "Doljevac", 
        "admin": "Doljevac", 
        "country": "Serbia", 
        "population_proper": "", 
        "iso2": "RS", 
        "capital": "admin", 
        "lat": "43.196833", 
        "lng": "21.833398", 
        "population": ""
    }, 
    {
        "city": "Stara Pazova", 
        "admin": "Stara Pazova", 
        "country": "Serbia", 
        "population_proper": "", 
        "iso2": "RS", 
        "capital": "admin", 
        "lat": "44.986131", 
        "lng": "20.159731", 
        "population": ""
    }, 
    {
        "city": "U\u017eice", 
        "admin": "U\u017eice", 
        "country": "Serbia", 
        "population_proper": "", 
        "iso2": "RS", 
        "capital": "admin", 
        "lat": "43.858185", 
        "lng": "19.844087", 
        "population": ""
    }, 
    {
        "city": "Lazarevac", 
        "admin": "Beograd", 
        "country": "Serbia", 
        "population_proper": "", 
        "iso2": "RS", 
        "capital": "minor", 
        "lat": "44.379722", 
        "lng": "20.263889", 
        "population": ""
    }, 
    {
        "city": "Petrovac na Mlavi", 
        "admin": "Petrovac na Mlavi", 
        "country": "Serbia", 
        "population_proper": "", 
        "iso2": "RS", 
        "capital": "admin", 
        "lat": "44.377283", 
        "lng": "21.41976", 
        "population": ""
    }, 
    {
        "city": "Srbobran", 
        "admin": "Srbobran", 
        "country": "Serbia", 
        "population_proper": "", 
        "iso2": "RS", 
        "capital": "admin", 
        "lat": "45.548098", 
        "lng": "19.795377", 
        "population": ""
    }, 
    {
        "city": "Despotovac", 
        "admin": "Despotovac", 
        "country": "Serbia", 
        "population_proper": "", 
        "iso2": "RS", 
        "capital": "admin", 
        "lat": "44.093202", 
        "lng": "21.443975", 
        "population": ""
    }, 
    {
        "city": "Topola", 
        "admin": "Topola", 
        "country": "Serbia", 
        "population_proper": "", 
        "iso2": "RS", 
        "capital": "admin", 
        "lat": "44.25442", 
        "lng": "20.682437", 
        "population": ""
    }, 
    {
        "city": "Nova Crnja", 
        "admin": "Nova Crnja", 
        "country": "Serbia", 
        "population_proper": "", 
        "iso2": "RS", 
        "capital": "admin", 
        "lat": "45.668517", 
        "lng": "20.604206", 
        "population": ""
    }, 
    {
        "city": "Brus", 
        "admin": "Brus", 
        "country": "Serbia", 
        "population_proper": "", 
        "iso2": "RS", 
        "capital": "admin", 
        "lat": "43.384599", 
        "lng": "21.028883", 
        "population": ""
    }, 
    {
        "city": "Gad\u017ein Han", 
        "admin": "Gad\u017ein Han", 
        "country": "Serbia", 
        "population_proper": "", 
        "iso2": "RS", 
        "capital": "admin", 
        "lat": "43.222289", 
        "lng": "22.033287", 
        "population": ""
    }, 
    {
        "city": "Prokuplje", 
        "admin": "Prokuplje", 
        "country": "Serbia", 
        "population_proper": "", 
        "iso2": "RS", 
        "capital": "admin", 
        "lat": "43.238315", 
        "lng": "21.593192", 
        "population": ""
    }, 
    {
        "city": "Dimitrovgrad", 
        "admin": "Dimitrovgrad", 
        "country": "Serbia", 
        "population_proper": "", 
        "iso2": "RS", 
        "capital": "admin", 
        "lat": "43.015455", 
        "lng": "22.77759", 
        "population": ""
    }, 
    {
        "city": "Boljevac", 
        "admin": "Boljevac", 
        "country": "Serbia", 
        "population_proper": "", 
        "iso2": "RS", 
        "capital": "admin", 
        "lat": "43.832131", 
        "lng": "21.960899", 
        "population": ""
    }, 
    {
        "city": "Temerin", 
        "admin": "Temerin", 
        "country": "Serbia", 
        "population_proper": "", 
        "iso2": "RS", 
        "capital": "admin", 
        "lat": "45.409464", 
        "lng": "19.89112", 
        "population": ""
    }, 
    {
        "city": "Malo Crni\u0107e", 
        "admin": "Malo Crni\u0107e", 
        "country": "Serbia", 
        "population_proper": "", 
        "iso2": "RS", 
        "capital": "admin", 
        "lat": "44.560257", 
        "lng": "21.290565", 
        "population": ""
    }, 
    {
        "city": "Tutin", 
        "admin": "Tutin", 
        "country": "Serbia", 
        "population_proper": "", 
        "iso2": "RS", 
        "capital": "admin", 
        "lat": "42.989993", 
        "lng": "20.333372", 
        "population": ""
    }, 
    {
        "city": "Plandi\u0161te", 
        "admin": "Plandi\u0161te", 
        "country": "Serbia", 
        "population_proper": "", 
        "iso2": "RS", 
        "capital": "admin", 
        "lat": "45.229228", 
        "lng": "21.123827", 
        "population": ""
    }, 
    {
        "city": "Blace", 
        "admin": "Blace", 
        "country": "Serbia", 
        "population_proper": "", 
        "iso2": "RS", 
        "capital": "admin", 
        "lat": "43.296964", 
        "lng": "21.272727", 
        "population": ""
    }, 
    {
        "city": "Zemun", 
        "admin": "Beograd", 
        "country": "Serbia", 
        "population_proper": "", 
        "iso2": "RS", 
        "capital": "minor", 
        "lat": "44.840696", 
        "lng": "20.397853", 
        "population": ""
    }, 
    {
        "city": "Aleksandrovac", 
        "admin": "Aleksandrovac", 
        "country": "Serbia", 
        "population_proper": "", 
        "iso2": "RS", 
        "capital": "admin", 
        "lat": "43.460895", 
        "lng": "21.053911", 
        "population": ""
    }, 
    {
        "city": "Ljubovija", 
        "admin": "Ljubovija", 
        "country": "Serbia", 
        "population_proper": "", 
        "iso2": "RS", 
        "capital": "admin", 
        "lat": "44.189574", 
        "lng": "19.378486", 
        "population": ""
    }, 
    {
        "city": "Kraljevo", 
        "admin": "Kraljevo", 
        "country": "Serbia", 
        "population_proper": "", 
        "iso2": "RS", 
        "capital": "admin", 
        "lat": "43.725908", 
        "lng": "20.689577", 
        "population": ""
    }, 
    {
        "city": "Zaje\u010dar", 
        "admin": "Zaje\u010dar", 
        "country": "Serbia", 
        "population_proper": "", 
        "iso2": "RS", 
        "capital": "admin", 
        "lat": "43.901871", 
        "lng": "22.275511", 
        "population": ""
    }, 
    {
        "city": "\u010ca\u010dak", 
        "admin": "\u010ca\u010dak", 
        "country": "Serbia", 
        "population_proper": "", 
        "iso2": "RS", 
        "capital": "admin", 
        "lat": "43.888017", 
        "lng": "20.344023", 
        "population": ""
    }, 
    {
        "city": "Se\u010danj", 
        "admin": "Se\u010danj", 
        "country": "Serbia", 
        "population_proper": "", 
        "iso2": "RS", 
        "capital": "admin", 
        "lat": "45.367638", 
        "lng": "20.773205", 
        "population": ""
    }, 
    {
        "city": "Priboj", 
        "admin": "Priboj", 
        "country": "Serbia", 
        "population_proper": "", 
        "iso2": "RS", 
        "capital": "admin", 
        "lat": "43.583611", 
        "lng": "19.525833", 
        "population": ""
    }, 
    {
        "city": "Beo\u010din", 
        "admin": "Beo\u010din ", 
        "country": "Serbia", 
        "population_proper": "", 
        "iso2": "RS", 
        "capital": "admin", 
        "lat": "45.191649", 
        "lng": "19.724962", 
        "population": ""
    }, 
    {
        "city": "Irig", 
        "admin": "Irig", 
        "country": "Serbia", 
        "population_proper": "", 
        "iso2": "RS", 
        "capital": "admin", 
        "lat": "45.100148", 
        "lng": "19.860301", 
        "population": ""
    }, 
    {
        "city": "Veliko Gradi\u0161te", 
        "admin": "Veliko Gradi\u0161te", 
        "country": "Serbia", 
        "population_proper": "", 
        "iso2": "RS", 
        "capital": "admin", 
        "lat": "44.763811", 
        "lng": "21.516251", 
        "population": ""
    }, 
    {
        "city": "Jagodina", 
        "admin": "Jagodina", 
        "country": "Serbia", 
        "population_proper": "", 
        "iso2": "RS", 
        "capital": "admin", 
        "lat": "43.97913", 
        "lng": "21.258311", 
        "population": ""
    }, 
    {
        "city": "Novi Kne\u017eevac", 
        "admin": "Novi Kne\u017eevac", 
        "country": "Serbia", 
        "population_proper": "", 
        "iso2": "RS", 
        "capital": "admin", 
        "lat": "46.041039", 
        "lng": "20.09584", 
        "population": ""
    }, 
    {
        "city": "Medve\u0111a", 
        "admin": "Medve\u0111a", 
        "country": "Serbia", 
        "population_proper": "", 
        "iso2": "RS", 
        "capital": "admin", 
        "lat": "42.842007", 
        "lng": "21.585811", 
        "population": ""
    }, 
    {
        "city": "Smederevo", 
        "admin": "Smederevo", 
        "country": "Serbia", 
        "population_proper": "", 
        "iso2": "RS", 
        "capital": "admin", 
        "lat": "44.651575", 
        "lng": "20.925777", 
        "population": ""
    }, 
    {
        "city": "\u017dagubica", 
        "admin": "\u017dagubica", 
        "country": "Serbia", 
        "population_proper": "", 
        "iso2": "RS", 
        "capital": "admin", 
        "lat": "44.197863", 
        "lng": "21.790196", 
        "population": ""
    }, 
    {
        "city": "Ra\u017eanj", 
        "admin": "Ra\u017eanj", 
        "country": "Serbia", 
        "population_proper": "", 
        "iso2": "RS", 
        "capital": "admin", 
        "lat": "43.674425", 
        "lng": "21.549205", 
        "population": ""
    }, 
    {
        "city": "Loznica", 
        "admin": "Loznica", 
        "country": "Serbia", 
        "population_proper": "", 
        "iso2": "RS", 
        "capital": "admin", 
        "lat": "44.531179", 
        "lng": "19.242668", 
        "population": ""
    }, 
    {
        "city": "Lu\u010dani", 
        "admin": "Lu\u010dani", 
        "country": "Serbia", 
        "population_proper": "", 
        "iso2": "RS", 
        "capital": "admin", 
        "lat": "43.860816", 
        "lng": "20.138434", 
        "population": ""
    }, 
    {
        "city": "Gornji Milanovac", 
        "admin": "Gornji Milanovac", 
        "country": "Serbia", 
        "population_proper": "", 
        "iso2": "RS", 
        "capital": "admin", 
        "lat": "44.024504", 
        "lng": "20.458646", 
        "population": ""
    }, 
    {
        "city": "Ba\u010dka Palanka", 
        "admin": "Ba\u010dka Palanka", 
        "country": "Serbia", 
        "population_proper": "", 
        "iso2": "RS", 
        "capital": "admin", 
        "lat": "45.251876", 
        "lng": "19.391649", 
        "population": ""
    }, 
    {
        "city": "Smederevska Palanka", 
        "admin": "Smederevska Palanka", 
        "country": "Serbia", 
        "population_proper": "", 
        "iso2": "RS", 
        "capital": "admin", 
        "lat": "44.365381", 
        "lng": "20.962273", 
        "population": ""
    }, 
    {
        "city": "Vranje", 
        "admin": "Vranje", 
        "country": "Serbia", 
        "population_proper": "", 
        "iso2": "RS", 
        "capital": "admin", 
        "lat": "42.555997", 
        "lng": "21.900236", 
        "population": ""
    }, 
    {
        "city": "\u017dabari", 
        "admin": "\u017dabari", 
        "country": "Serbia", 
        "population_proper": "", 
        "iso2": "RS", 
        "capital": "admin", 
        "lat": "44.356169", 
        "lng": "21.214256", 
        "population": ""
    }, 
    {
        "city": "Kosjeri\u0107", 
        "admin": "Kosjeri\u0107", 
        "country": "Serbia", 
        "population_proper": "", 
        "iso2": "RS", 
        "capital": "admin", 
        "lat": "43.998702", 
        "lng": "19.907859", 
        "population": ""
    }, 
    {
        "city": "Sopot", 
        "admin": "Beograd", 
        "country": "Serbia", 
        "population_proper": "", 
        "iso2": "RS", 
        "capital": "minor", 
        "lat": "44.519348", 
        "lng": "20.575785", 
        "population": ""
    }, 
    {
        "city": "Ku\u010devo", 
        "admin": "Ku\u010devo", 
        "country": "Serbia", 
        "population_proper": "", 
        "iso2": "RS", 
        "capital": "admin", 
        "lat": "44.476729", 
        "lng": "21.671183", 
        "population": ""
    }, 
    {
        "city": "Senta", 
        "admin": "Senta", 
        "country": "Serbia", 
        "population_proper": "", 
        "iso2": "RS", 
        "capital": "admin", 
        "lat": "45.927334", 
        "lng": "20.078859", 
        "population": ""
    }, 
    {
        "city": "Bajina Ba\u0161ta", 
        "admin": "Bajina Ba\u0161ta", 
        "country": "Serbia", 
        "population_proper": "", 
        "iso2": "RS", 
        "capital": "admin", 
        "lat": "43.970917", 
        "lng": "19.565524", 
        "population": ""
    }, 
    {
        "city": "Vrnja\u010dka Banja", 
        "admin": "Vrnja\u010dka Banja", 
        "country": "Serbia", 
        "population_proper": "", 
        "iso2": "RS", 
        "capital": "admin", 
        "lat": "43.622328", 
        "lng": "20.89561", 
        "population": ""
    }, 
    {
        "city": "Pirot", 
        "admin": "Pirot", 
        "country": "Serbia", 
        "population_proper": "", 
        "iso2": "RS", 
        "capital": "admin", 
        "lat": "43.16165", 
        "lng": "22.58713", 
        "population": ""
    }, 
    {
        "city": "Kni\u0107", 
        "admin": "Kni\u0107", 
        "country": "Serbia", 
        "population_proper": "", 
        "iso2": "RS", 
        "capital": "admin", 
        "lat": "43.92696", 
        "lng": "20.719695", 
        "population": ""
    }, 
    {
        "city": "Rekovac", 
        "admin": "Rekovac", 
        "country": "Serbia", 
        "population_proper": "", 
        "iso2": "RS", 
        "capital": "admin", 
        "lat": "43.860913", 
        "lng": "21.095774", 
        "population": ""
    }, 
    {
        "city": "Leskovac", 
        "admin": "Leskovac", 
        "country": "Serbia", 
        "population_proper": "", 
        "iso2": "RS", 
        "capital": "admin", 
        "lat": "42.997558", 
        "lng": "21.944496", 
        "population": ""
    }, 
    {
        "city": "Golubac", 
        "admin": "Golubac", 
        "country": "Serbia", 
        "population_proper": "", 
        "iso2": "RS", 
        "capital": "admin", 
        "lat": "44.652912", 
        "lng": "21.630772", 
        "population": ""
    }, 
    {
        "city": "Ub", 
        "admin": "Ub", 
        "country": "Serbia", 
        "population_proper": "", 
        "iso2": "RS", 
        "capital": "admin", 
        "lat": "44.457197", 
        "lng": "20.076242", 
        "population": ""
    }, 
    {
        "city": "Ba\u010dka Topola", 
        "admin": "Ba\u010dka Topola", 
        "country": "Serbia", 
        "population_proper": "", 
        "iso2": "RS", 
        "capital": "admin", 
        "lat": "45.815206", 
        "lng": "19.636943", 
        "population": ""
    }, 
    {
        "city": "Ba\u010dki Petrovac", 
        "admin": "Ba\u010dki Petrovac", 
        "country": "Serbia", 
        "population_proper": "", 
        "iso2": "RS", 
        "capital": "admin", 
        "lat": "45.36157", 
        "lng": "19.591981", 
        "population": ""
    }, 
    {
        "city": "Titel", 
        "admin": "Titel", 
        "country": "Serbia", 
        "population_proper": "", 
        "iso2": "RS", 
        "capital": "admin", 
        "lat": "45.206014", 
        "lng": "20.294882", 
        "population": ""
    }, 
    {
        "city": "Od\u017eaci", 
        "admin": "Od\u017eaci", 
        "country": "Serbia", 
        "population_proper": "", 
        "iso2": "RS", 
        "capital": "admin", 
        "lat": "45.50763", 
        "lng": "19.260601", 
        "population": ""
    }, 
    {
        "city": "Ba\u010d", 
        "admin": "Ba\u010d", 
        "country": "Serbia", 
        "population_proper": "", 
        "iso2": "RS", 
        "capital": "admin", 
        "lat": "45.392276", 
        "lng": "19.236684", 
        "population": ""
    }, 
    {
        "city": "\u010cajetina", 
        "admin": "\u010cajetina", 
        "country": "Serbia", 
        "population_proper": "", 
        "iso2": "RS", 
        "capital": "admin", 
        "lat": "43.749736", 
        "lng": "19.714951", 
        "population": ""
    }, 
    {
        "city": "Barajevo", 
        "admin": "Beograd", 
        "country": "Serbia", 
        "population_proper": "", 
        "iso2": "RS", 
        "capital": "minor", 
        "lat": "44.579011", 
        "lng": "20.417895", 
        "population": ""
    }, 
    {
        "city": "Po\u017earevac", 
        "admin": "Po\u017earevac", 
        "country": "Serbia", 
        "population_proper": "", 
        "iso2": "RS", 
        "capital": "admin", 
        "lat": "44.622213", 
        "lng": "21.182589", 
        "population": ""
    }, 
    {
        "city": "Ra\u0161ka", 
        "admin": "Ra\u0161ka", 
        "country": "Serbia", 
        "population_proper": "", 
        "iso2": "RS", 
        "capital": "admin", 
        "lat": "43.28595", 
        "lng": "20.613515", 
        "population": ""
    }, 
    {
        "city": "Lapovo", 
        "admin": "Lapovo", 
        "country": "Serbia", 
        "population_proper": "", 
        "iso2": "RS", 
        "capital": "admin", 
        "lat": "44.187731", 
        "lng": "21.09687", 
        "population": ""
    }, 
    {
        "city": "Trstenik", 
        "admin": "Trstenik", 
        "country": "Serbia", 
        "population_proper": "", 
        "iso2": "RS", 
        "capital": "admin", 
        "lat": "43.616944", 
        "lng": "21.0025", 
        "population": ""
    }, 
    {
        "city": "Pre\u0161evo", 
        "admin": "Pre\u0161evo", 
        "country": "Serbia", 
        "population_proper": "", 
        "iso2": "RS", 
        "capital": "admin", 
        "lat": "42.307058", 
        "lng": "21.650034", 
        "population": ""
    }, 
    {
        "city": "Vrbas", 
        "admin": "Vrbas", 
        "country": "Serbia", 
        "population_proper": "", 
        "iso2": "RS", 
        "capital": "admin", 
        "lat": "45.570426", 
        "lng": "19.647857", 
        "population": ""
    }, 
    {
        "city": "Kladovo", 
        "admin": "Kladovo", 
        "country": "Serbia", 
        "population_proper": "", 
        "iso2": "RS", 
        "capital": "admin", 
        "lat": "44.607292", 
        "lng": "22.615474", 
        "population": ""
    }, 
    {
        "city": "\u0106i\u0107evac", 
        "admin": "\u0106i\u0107evac", 
        "country": "Serbia", 
        "population_proper": "", 
        "iso2": "RS", 
        "capital": "admin", 
        "lat": "43.719967", 
        "lng": "21.443617", 
        "population": ""
    }, 
    {
        "city": "Valjevo", 
        "admin": "Valjevo", 
        "country": "Serbia", 
        "population_proper": "", 
        "iso2": "RS", 
        "capital": "admin", 
        "lat": "44.271955", 
        "lng": "19.887437", 
        "population": ""
    }, 
    {
        "city": "Varvarin", 
        "admin": "Varvarin", 
        "country": "Serbia", 
        "population_proper": "", 
        "iso2": "RS", 
        "capital": "admin", 
        "lat": "43.719517", 
        "lng": "21.371223", 
        "population": ""
    }, 
    {
        "city": "Apatin", 
        "admin": "Apatin", 
        "country": "Serbia", 
        "population_proper": "", 
        "iso2": "RS", 
        "capital": "admin", 
        "lat": "45.67092", 
        "lng": "18.984344", 
        "population": ""
    }, 
    {
        "city": "Novi Be\u010dej", 
        "admin": "Novi Be\u010dej", 
        "country": "Serbia", 
        "population_proper": "", 
        "iso2": "RS", 
        "capital": "admin", 
        "lat": "45.601466", 
        "lng": "20.136361", 
        "population": ""
    }, 
    {
        "city": "In\u0111ija", 
        "admin": "In\u0111ija", 
        "country": "Serbia", 
        "population_proper": "", 
        "iso2": "RS", 
        "capital": "admin", 
        "lat": "45.048162", 
        "lng": "20.081647", 
        "population": ""
    }, 
    {
        "city": "Vladi\u010din Han", 
        "admin": "Vladi\u010din Han", 
        "country": "Serbia", 
        "population_proper": "", 
        "iso2": "RS", 
        "capital": "admin", 
        "lat": "42.708202", 
        "lng": "22.066365", 
        "population": ""
    }, 
    {
        "city": "Sokobanja", 
        "admin": "Sokobanja", 
        "country": "Serbia", 
        "population_proper": "", 
        "iso2": "RS", 
        "capital": "admin", 
        "lat": "43.645293", 
        "lng": "21.869178", 
        "population": ""
    }, 
    {
        "city": "Kru\u0161evac", 
        "admin": "Kru\u0161evac", 
        "country": "Serbia", 
        "population_proper": "", 
        "iso2": "RS", 
        "capital": "admin", 
        "lat": "43.58105", 
        "lng": "21.335174", 
        "population": ""
    }, 
    {
        "city": "Bosilegrad", 
        "admin": "Bosilegrad", 
        "country": "Serbia", 
        "population_proper": "", 
        "iso2": "RS", 
        "capital": "admin", 
        "lat": "42.500482", 
        "lng": "22.472784", 
        "population": ""
    }, 
    {
        "city": "Mali I\u0111o\u0161", 
        "admin": "Mali I\u0111o\u0161", 
        "country": "Serbia", 
        "population_proper": "", 
        "iso2": "RS", 
        "capital": "admin", 
        "lat": "45.709191", 
        "lng": "19.666261", 
        "population": ""
    }, 
    {
        "city": "Petrovaradin", 
        "admin": "Novi Sad", 
        "country": "Serbia", 
        "population_proper": "", 
        "iso2": "RS", 
        "capital": "minor", 
        "lat": "45.245449", 
        "lng": "19.879344", 
        "population": ""
    }, 
    {
        "city": "Vlasotince", 
        "admin": "Vlasotince", 
        "country": "Serbia", 
        "population_proper": "", 
        "iso2": "RS", 
        "capital": "admin", 
        "lat": "42.965907", 
        "lng": "22.127178", 
        "population": ""
    }, 
    {
        "city": "Grocka", 
        "admin": "Beograd", 
        "country": "Serbia", 
        "population_proper": "", 
        "iso2": "RS", 
        "capital": "minor", 
        "lat": "44.67204", 
        "lng": "20.715286", 
        "population": ""
    }, 
    {
        "city": "Mali Zvornik", 
        "admin": "Mali Zvornik", 
        "country": "Serbia", 
        "population_proper": "", 
        "iso2": "RS", 
        "capital": "admin", 
        "lat": "44.399176", 
        "lng": "19.121431", 
        "population": ""
    }, 
    {
        "city": "Majdanpek", 
        "admin": "Majdanpek", 
        "country": "Serbia", 
        "population_proper": "", 
        "iso2": "RS", 
        "capital": "admin", 
        "lat": "44.422847", 
        "lng": "21.935837", 
        "population": ""
    }, 
    {
        "city": "Para\u0107in", 
        "admin": "Para\u0107in", 
        "country": "Serbia", 
        "population_proper": "", 
        "iso2": "RS", 
        "capital": "admin", 
        "lat": "43.859155", 
        "lng": "21.41191", 
        "population": ""
    }, 
    {
        "city": "Bela Palanka", 
        "admin": "Bela Palanka", 
        "country": "Serbia", 
        "population_proper": "", 
        "iso2": "RS", 
        "capital": "admin", 
        "lat": "43.219622", 
        "lng": "22.314048", 
        "population": ""
    }, 
    {
        "city": "Kikinda", 
        "admin": "Kikinda", 
        "country": "Serbia", 
        "population_proper": "", 
        "iso2": "RS", 
        "capital": "admin", 
        "lat": "45.832292", 
        "lng": "20.468191", 
        "population": ""
    }, 
    {
        "city": "Pe\u0107inci", 
        "admin": "Pe\u0107inci", 
        "country": "Serbia", 
        "population_proper": "", 
        "iso2": "RS", 
        "capital": "admin", 
        "lat": "44.908889", 
        "lng": "19.966389", 
        "population": ""
    }, 
    {
        "city": "Surdulica", 
        "admin": "Surdulica", 
        "country": "Serbia", 
        "population_proper": "", 
        "iso2": "RS", 
        "capital": "admin", 
        "lat": "42.690358", 
        "lng": "22.170416", 
        "population": ""
    }, 
    {
        "city": "Opovo", 
        "admin": "Opovo", 
        "country": "Serbia", 
        "population_proper": "", 
        "iso2": "RS", 
        "capital": "admin", 
        "lat": "45.052172", 
        "lng": "20.431343", 
        "population": ""
    }, 
    {
        "city": "Knja\u017eevac", 
        "admin": "Knja\u017eevac", 
        "country": "Serbia", 
        "population_proper": "", 
        "iso2": "RS", 
        "capital": "admin", 
        "lat": "43.566696", 
        "lng": "22.25393", 
        "population": ""
    }, 
    {
        "city": "Ni\u0161ka Banja", 
        "admin": "Ni\u0161", 
        "country": "Serbia", 
        "population_proper": "", 
        "iso2": "RS", 
        "capital": "minor", 
        "lat": "43.294312", 
        "lng": "22.009906", 
        "population": ""
    }, 
    {
        "city": "Lajkovac", 
        "admin": "Lajkovac", 
        "country": "Serbia", 
        "population_proper": "", 
        "iso2": "RS", 
        "capital": "admin", 
        "lat": "44.370041", 
        "lng": "20.164425", 
        "population": ""
    }, 
    {
        "city": "\u017diti\u0161te", 
        "admin": "\u017diti\u0161te", 
        "country": "Serbia", 
        "population_proper": "", 
        "iso2": "RS", 
        "capital": "admin", 
        "lat": "45.485384", 
        "lng": "20.550725", 
        "population": ""
    }, 
    {
        "city": "Mero\u0161ina", 
        "admin": "Mero\u0161ina", 
        "country": "Serbia", 
        "population_proper": "", 
        "iso2": "RS", 
        "capital": "admin", 
        "lat": "43.281278", 
        "lng": "21.721834", 
        "population": ""
    }, 
    {
        "city": "Svrljig", 
        "admin": "Svrljig", 
        "country": "Serbia", 
        "population_proper": "", 
        "iso2": "RS", 
        "capital": "admin", 
        "lat": "43.412867", 
        "lng": "22.125209", 
        "population": ""
    }, 
    {
        "city": "Vr\u0161ac", 
        "admin": "Vr\u0161ac", 
        "country": "Serbia", 
        "population_proper": "", 
        "iso2": "RS", 
        "capital": "admin", 
        "lat": "45.117501", 
        "lng": "21.298315", 
        "population": ""
    }, 
    {
        "city": "Ivanjica", 
        "admin": "Ivanjica", 
        "country": "Serbia", 
        "population_proper": "", 
        "iso2": "RS", 
        "capital": "admin", 
        "lat": "43.582043", 
        "lng": "20.228379", 
        "population": ""
    }, 
    {
        "city": "Ose\u010dina", 
        "admin": "Ose\u010dina", 
        "country": "Serbia", 
        "population_proper": "", 
        "iso2": "RS", 
        "capital": "admin", 
        "lat": "44.372836", 
        "lng": "19.600976", 
        "population": ""
    }, 
    {
        "city": "Vladimirci", 
        "admin": "Vladimirci", 
        "country": "Serbia", 
        "population_proper": "", 
        "iso2": "RS", 
        "capital": "admin", 
        "lat": "44.615776", 
        "lng": "19.784303", 
        "population": ""
    }, 
    {
        "city": "Ra\u010da", 
        "admin": "Ra\u010da", 
        "country": "Serbia", 
        "population_proper": "", 
        "iso2": "RS", 
        "capital": "admin", 
        "lat": "44.22685", 
        "lng": "20.978954", 
        "population": ""
    }, 
    {
        "city": "Svilajnac", 
        "admin": "Svilajnac", 
        "country": "Serbia", 
        "population_proper": "", 
        "iso2": "RS", 
        "capital": "admin", 
        "lat": "44.238271", 
        "lng": "21.196994", 
        "population": ""
    }, 
    {
        "city": "Ada", 
        "admin": "Ada", 
        "country": "Serbia", 
        "population_proper": "", 
        "iso2": "RS", 
        "capital": "admin", 
        "lat": "45.802655", 
        "lng": "20.128509", 
        "population": ""
    }, 
    {
        "city": "Kula", 
        "admin": "Kula", 
        "country": "Serbia", 
        "population_proper": "", 
        "iso2": "RS", 
        "capital": "admin", 
        "lat": "45.610866", 
        "lng": "19.527391", 
        "population": ""
    }, 
    {
        "city": "Trgovi\u0161te", 
        "admin": "Trgovi\u0161te", 
        "country": "Serbia", 
        "population_proper": "", 
        "iso2": "RS", 
        "capital": "admin", 
        "lat": "42.3514", 
        "lng": "22.092091", 
        "population": ""
    }, 
    {
        "city": "\u017ditora\u0111a", 
        "admin": "\u017ditora\u0111a", 
        "country": "Serbia", 
        "population_proper": "", 
        "iso2": "RS", 
        "capital": "admin", 
        "lat": "43.190209", 
        "lng": "21.713413", 
        "population": ""
    }, 
    {
        "city": "Bujanovac", 
        "admin": "Bujanovac", 
        "country": "Serbia", 
        "population_proper": "", 
        "iso2": "RS", 
        "capital": "admin", 
        "lat": "42.460618", 
        "lng": "21.766552", 
        "population": ""
    }, 
    {
        "city": "Alibunar", 
        "admin": "Alibunar", 
        "country": "Serbia", 
        "population_proper": "", 
        "iso2": "RS", 
        "capital": "admin", 
        "lat": "45.078874", 
        "lng": "20.968205", 
        "population": ""
    }, 
    {
        "city": "Kanji\u017ea", 
        "admin": "Kanji\u017ea", 
        "country": "Serbia", 
        "population_proper": "", 
        "iso2": "RS", 
        "capital": "admin", 
        "lat": "46.063472", 
        "lng": "20.050403", 
        "population": ""
    }, 
    {
        "city": "Obrenovac", 
        "admin": "Beograd", 
        "country": "Serbia", 
        "population_proper": "", 
        "iso2": "RS", 
        "capital": "minor", 
        "lat": "44.653889", 
        "lng": "20.2", 
        "population": ""
    }, 
    {
        "city": "Novi Pazar", 
        "admin": "Novi Pazar", 
        "country": "Serbia", 
        "population_proper": "", 
        "iso2": "RS", 
        "capital": "admin", 
        "lat": "43.137514", 
        "lng": "20.514905", 
        "population": ""
    }, 
    {
        "city": "Kur\u0161umlija", 
        "admin": "Kur\u0161umlija", 
        "country": "Serbia", 
        "population_proper": "", 
        "iso2": "RS", 
        "capital": "admin", 
        "lat": "43.139047", 
        "lng": "21.273508", 
        "population": ""
    }, 
    {
        "city": "Kostolac", 
        "admin": "Po\u017earevac", 
        "country": "Serbia", 
        "population_proper": "", 
        "iso2": "RS", 
        "capital": "minor", 
        "lat": "44.713559", 
        "lng": "21.169287", 
        "population": ""
    }, 
    {
        "city": "\u017dabalj", 
        "admin": "\u017dabalj", 
        "country": "Serbia", 
        "population_proper": "", 
        "iso2": "RS", 
        "capital": "admin", 
        "lat": "45.374078", 
        "lng": "20.0707", 
        "population": ""
    }, 
    {
        "city": "Be\u010dej", 
        "admin": "Be\u010dej", 
        "country": "Serbia", 
        "population_proper": "", 
        "iso2": "RS", 
        "capital": "admin", 
        "lat": "45.619602", 
        "lng": "20.039983", 
        "population": ""
    }, 
    {
        "city": "Sremski Karlovci", 
        "admin": "Sremski Karlovci", 
        "country": "Serbia", 
        "population_proper": "", 
        "iso2": "RS", 
        "capital": "admin", 
        "lat": "45.202095", 
        "lng": "19.932455", 
        "population": ""
    }, 
    {
        "city": "Sremska Mitrovica", 
        "admin": "Sremska Mitrovica", 
        "country": "Serbia", 
        "population_proper": "", 
        "iso2": "RS", 
        "capital": "admin", 
        "lat": "44.976389", 
        "lng": "19.612222", 
        "population": ""
    }, 
    {
        "city": "Negotin", 
        "admin": "Negotin", 
        "country": "Serbia", 
        "population_proper": "", 
        "iso2": "RS", 
        "capital": "admin", 
        "lat": "44.226389", 
        "lng": "22.530833", 
        "population": ""
    }, 
    {
        "city": "Prijepolje", 
        "admin": "Prijepolje", 
        "country": "Serbia", 
        "population_proper": "", 
        "iso2": "RS", 
        "capital": "admin", 
        "lat": "43.390327", 
        "lng": "19.65061", 
        "population": ""
    }, 
    {
        "city": "Bato\u010dina", 
        "admin": "Bato\u010dina", 
        "country": "Serbia", 
        "population_proper": "", 
        "iso2": "RS", 
        "capital": "admin", 
        "lat": "44.154749", 
        "lng": "21.07991", 
        "population": ""
    }, 
    {
        "city": "Velika Plana", 
        "admin": "Velika Plana", 
        "country": "Serbia", 
        "population_proper": "", 
        "iso2": "RS", 
        "capital": "admin", 
        "lat": "44.332338", 
        "lng": "21.075132", 
        "population": ""
    }, 
    {
        "city": "Mladenovac", 
        "admin": "Beograd", 
        "country": "Serbia", 
        "population_proper": "", 
        "iso2": "RS", 
        "capital": "minor", 
        "lat": "44.44184", 
        "lng": "20.697007", 
        "population": ""
    }, 
    {
        "city": "Crna Trava", 
        "admin": "Crna Trava", 
        "country": "Serbia", 
        "population_proper": "", 
        "iso2": "RS", 
        "capital": "admin", 
        "lat": "42.807114", 
        "lng": "22.324661", 
        "population": ""
    }, 
    {
        "city": "Mionica", 
        "admin": "Mionica", 
        "country": "Serbia", 
        "population_proper": "", 
        "iso2": "RS", 
        "capital": "admin", 
        "lat": "44.252423", 
        "lng": "20.081707", 
        "population": ""
    }, 
    {
        "city": "Sjenica", 
        "admin": "Sjenica", 
        "country": "Serbia", 
        "population_proper": "", 
        "iso2": "RS", 
        "capital": "admin", 
        "lat": "43.273545", 
        "lng": "20.000368", 
        "population": ""
    }, 
    {
        "city": "Kovin", 
        "admin": "Kovin", 
        "country": "Serbia", 
        "population_proper": "", 
        "iso2": "RS", 
        "capital": "admin", 
        "lat": "44.748222", 
        "lng": "20.976599", 
        "population": ""
    }, 
    {
        "city": "Ruma", 
        "admin": "Ruma", 
        "country": "Serbia", 
        "population_proper": "", 
        "iso2": "RS", 
        "capital": "admin", 
        "lat": "45.007858", 
        "lng": "19.817096", 
        "population": ""
    }, 
    {
        "city": "\u0160id", 
        "admin": "\u0160id", 
        "country": "Serbia", 
        "population_proper": "", 
        "iso2": "RS", 
        "capital": "admin", 
        "lat": "45.127597", 
        "lng": "19.226675", 
        "population": ""
    }, 
    {
        "city": "Nova Varo\u0161", 
        "admin": "Nova Varo\u0161", 
        "country": "Serbia", 
        "population_proper": "", 
        "iso2": "RS", 
        "capital": "admin", 
        "lat": "43.460026", 
        "lng": "19.811677", 
        "population": ""
    }, 
    {
        "city": "Bor", 
        "admin": "Bor", 
        "country": "Serbia", 
        "population_proper": "", 
        "iso2": "RS", 
        "capital": "admin", 
        "lat": "44.081885", 
        "lng": "22.096673", 
        "population": ""
    }
]